{"type":"FeatureCollection","features":[{"type":"Feature","properties":{"landmark":"","Address":"","Architect + Date":"","Link":"","Designated ":"","Notes ":""},"geometry":{"coordinates":[151.25306700000095,-33.89116896848215],"type":"Point"},"id":0},{"type":"Feature","properties":{"landmark":"","Address":"","Architect + Date":"","Designated ":"","Notes ":"","Link":""},"geometry":{"coordinates":[-79.61003776389047,33.56645540453897],"type":"Point"}},{"type":"Feature","properties":{"landmark":"","Address":"","Architect + Date":"","Link":"","Designated ":"","Notes ":""},"geometry":{"coordinates":[-68.31977757971408,10.797705702526784],"type":"Point"}},{"type":"Feature","properties":{"landmark":"","Address":"","Architect + Date":"","Link":"","Designated ":"","Notes ":""},"geometry":{"coordinates":[-76.42343945767307,37.966556263401216],"type":"Point"}},{"type":"Feature","properties":{"Link":"","Address":"","landmark":"","Architect + Date":"","Designated ":"","Notes ":""},"geometry":{"coordinates":[-122.26109099999991,37.873875556532894],"type":"Point"}},{"type":"Feature","properties":{"Address":"2231 Shattuck Avenue at Kittredge Street","landmark":"Brooks Apartments","Architect + Date":"Brooks Apartments","Link":"http://berkeleyheritage.com/berkeley_landmarks/images/Brooks_Apts2004.jpg","Designated ":"7 Apr 2003","Notes ":"CA State Historic Resources Inventory"},"geometry":{"coordinates":[-122.26745000000024,37.86884069541691],"type":"Point"}},{"type":"Feature","properties":{"Address":"2430 Fulton Street","landmark":"John Kueffer House","Architect + Date":"(1891)","Designated ":"5 May 2003","Link":"http://berkeleyheritage.com/berkeley_landmarks/kueffer-bosse.html","Notes ":""},"geometry":{"coordinates":[-122.26563000000024,37.86484858003436],"type":"Point"}},{"type":"Feature","properties":{"Address":"1427 Hawthorne Terrace","landmark":"Prof. Stuart Daggett House","Architect + Date":"John Hudson Thomas (1924, 1938)","Link":"http://berkeleyheritage.com/berkeley_landmarks/images/Daggett_house2004.jpg","Designated ":"14 Jul 2003"},"geometry":{"coordinates":[-122.26240499999935,37.88227546799213],"type":"Point"}},{"type":"Feature","properties":{"Address":"2161 Shattuck Avenue at Center Street","Architect + Date":"William Knowles (1906)","landmark":"Wright Block","Link":"http://berkeleyheritage.com/berkeley_landmarks/images/Wright.Block.corner.jpg","Designated ":"8 Sep 2003"},"geometry":{"coordinates":[-122.26802972883618,37.869652469445114],"type":"Point"}},{"type":"Feature","properties":{"Address":"2053 Berkeley Way at Shattuck Avenue","landmark":"George Morgan Building","Architect + Date":"Albert Dodge Coplin (1904)","Designated ":"12 Jan 2004","Link":"http://berkeleyheritage.com/berkeley_landmarks/2004_landmarks.html","Notes ":"CA State Historic Resources Inventory"},"geometry":{"coordinates":[-122.26880899999993,37.87309846904739],"type":"Point"}},{"type":"Feature","properties":{"landmark":"Captain Charles C. Boudrow House","Address":"1536 Oxford Street","Architect + Date":"Julius E. Krafft (1889)","Link":"http://berkeleyheritage.com/berkeley_landmarks/boudrow.html","Designated ":"21 Jun 1976","Notes ":"CA State Historic Resources Inventory"},"geometry":{"coordinates":[-122.26730200000054,37.879141468353396],"type":"Point"}},{"type":"Feature","properties":{"landmark":"Andrew Cowper Lawson House","Address":"1515 La Loma Avenue","Architect + Date":"Bernard Maybeck (1907–08)","Link":"http://berkeleyheritage.com/berkeley_landmarks/images/Lawson_house.ls.jpg","Designated ":"16 Aug 1976","Notes ":"CA State Historic Resources Inventory"},"geometry":{"coordinates":[-122.25807072883565,37.88124846811026],"type":"Point"}},{"type":"Feature","properties":{"Address":"2509–2513 Telegraph Avenue","landmark":"Soda Water Works Building","Architect + Date":"E.A. Spalding, builder (1888); Henry F. Bowers, builder (1904–05 addition)","Link":"http://berkeleyheritage.com/berkeley_landmarks/2004_landmarks.html","Designated ":"12 April 2004"},"geometry":{"coordinates":[-122.25828545773881,37.86497905021409],"type":"Point"}},{"type":"Feature","properties":{"Address":"2750 Adeline Street","landmark":"Frederick H. Dakin Warehouse","Architect + Date":"Walter H. Ratcliff & George T. Plowman (1906–07)","Link":"http://berkeleyheritage.com/berkeley_landmarks/2004_landmarks.html","Designated ":"9 August 2004","Notes ":"CA State Historic Resources Inventory Altered after designation"},"geometry":{"coordinates":[-122.26816172883642,37.858534176599605],"type":"Point"}},{"type":"Feature","properties":{"Address":"2100 Vine Street at Shattuck Avenue","landmark":"Squires Block","Architect + Date":"Edwin Squires (1895)","Link":"http://berkeleyheritage.com/berkeley_landmarks/2005_landmarks.html","Designated ":"9 May 2005","Notes ":"Structure of Merit CA State Historic Resources Inventory"},"geometry":{"coordinates":[-122.26902327116369,37.88005464567114],"type":"Point"}}]}